City ID,City,Country,Lat,Lng,Date,Max Temp,Humidity,Cloudiness,Wind Speed
0,Ushuaia,AR,-54.8,-68.3,2020-04-11,42.8,56.0,40.0,5.28
1,Punta Arenas,CL,-53.15,-70.92,2020-04-11,39.2,86.0,40.0,13.87
2,Rio Gallegos,AR,-51.62,-69.22,2020-04-11,42.8,70.0,54.0,6.93
3,Bluff,NZ,-46.6,168.33,2020-04-11,70.0,48.0,5.0,5.01
4,Kaitangata,NZ,-46.28,169.85,2020-04-11,53.01,85.0,0.0,3.0
5,Comodoro Rivadavia,AR,-45.87,-67.5,2020-04-11,55.4,82.0,40.0,5.82
6,Dunedin,NZ,-45.87,170.5,2020-04-11,55.99,85.0,0.0,5.01
7,Coihaique,CL,-45.58,-72.07,2020-04-11,42.8,81.0,75.0,3.36
8,Te Anau,NZ,-45.42,167.72,2020-04-11,54.55,65.0,41.0,5.68
9,Christchurch,NZ,-43.53,172.63,2020-04-11,63.0,77.0,0.0,13.87
10,Rawson,AR,-43.3,-65.1,2020-04-11,61.77,60.0,65.0,16.98
11,Hobart,AU,-42.88,147.33,2020-04-11,55.4,66.0,75.0,17.22
12,New Norfolk,AU,-42.78,147.06,2020-04-11,55.4,66.0,75.0,17.22
13,Castro,CL,-42.47,-73.77,2020-04-11,42.8,100.0,75.0,4.7
14,Ancud,CL,-41.87,-73.82,2020-04-11,42.8,100.0,75.0,4.7
15,Westport,NZ,-41.75,171.6,2020-04-11,56.91,74.0,39.0,2.91
16,Waipawa,NZ,-41.41,175.52,2020-04-11,61.0,77.0,6.0,23.04
17,Neuquen,AR,-38.95,-68.06,2020-04-11,66.2,39.0,88.0,6.93
18,Mar Del Plata,AR,-38.0,-57.56,2020-04-11,53.6,87.0,0.0,3.36
19,Mount Gambier,AU,-37.83,140.77,2020-04-11,57.2,54.0,90.0,23.04
20,Lebu,CL,-37.62,-73.65,2020-04-11,55.04,84.0,49.0,11.92
21,Dargaville,NZ,-35.93,173.88,2020-04-11,60.33,73.0,21.0,1.05
22,Constitucion,CL,-35.33,-72.42,2020-04-11,54.21,90.0,100.0,6.64
23,Kaeo,NZ,-35.1,173.78,2020-04-11,66.0,72.0,19.0,5.01
24,Albany,AU,-35.02,117.89,2020-04-11,77.0,61.0,92.0,12.75
25,Port Lincoln,AU,-34.73,135.87,2020-04-11,60.21,65.0,82.0,16.06
26,Bredasdorp,ZA,-34.53,20.04,2020-04-11,60.8,82.0,100.0,2.24
27,Hermanus,ZA,-34.42,19.23,2020-04-11,61.0,91.0,99.0,3.0
28,Cape Town,ZA,-33.93,18.42,2020-04-11,62.6,93.0,20.0,9.17
29,Port Elizabeth,ZA,-33.92,25.57,2020-04-11,53.6,93.0,20.0,3.29
30,Esperance,AU,-33.87,121.9,2020-04-11,80.6,44.0,14.0,10.29
31,Chuy,UY,-33.7,-53.46,2020-04-11,60.26,85.0,0.0,3.24
32,Busselton,AU,-33.65,115.33,2020-04-11,96.01,17.0,72.0,5.59
33,Port Alfred,ZA,-33.59,26.89,2020-04-11,67.32,82.0,17.0,7.07
34,Willowmore,ZA,-33.29,23.49,2020-04-11,61.88,39.0,56.0,2.86
35,Port Pirie,AU,-33.18,138.02,2020-04-11,68.0,56.0,59.0,19.46
36,Gualeguay,AR,-33.14,-59.31,2020-04-11,52.61,86.0,0.0,4.43
37,Rio Cuarto,AR,-33.13,-64.35,2020-04-11,53.6,66.0,0.0,5.82
38,East London,ZA,-33.02,27.91,2020-04-11,57.2,93.0,6.0,2.24
39,Saldanha,ZA,-33.01,17.94,2020-04-11,60.8,93.0,92.0,4.7
40,Port Macquarie,AU,-31.43,152.92,2020-04-11,75.2,38.0,95.0,9.17
41,Margate,ZA,-30.86,30.37,2020-04-11,74.73,65.0,70.0,11.3
42,De Aar,ZA,-30.65,24.01,2020-04-11,62.37,52.0,9.0,17.83
43,Cidreira,BR,-30.18,-50.21,2020-04-11,62.04,82.0,6.0,5.12
44,Coquimbo,CL,-29.95,-71.34,2020-04-11,60.4,84.0,69.0,9.31
45,Richards Bay,ZA,-28.78,32.04,2020-04-11,71.62,76.0,32.0,15.12
46,Geraldton,AU,-28.77,114.6,2020-04-11,91.4,31.0,70.0,10.29
47,Byron Bay,AU,-28.65,153.62,2020-04-11,88.0,32.0,37.0,13.87
48,Laguna,BR,-28.48,-48.78,2020-04-11,59.59,89.0,0.0,8.88
49,Imbituba,BR,-28.24,-48.67,2020-04-11,62.6,59.0,3.0,5.82
50,Luderitz,NA,-26.65,15.16,2020-04-11,53.6,87.0,0.0,3.36
51,San Vicente,AR,-26.62,-54.13,2020-04-11,49.08,80.0,0.0,3.6
52,Roma,AU,-26.58,148.78,2020-04-11,81.5,19.0,16.0,15.9
53,Coolum Beach,AU,-26.53,153.1,2020-04-11,86.0,69.0,53.0,5.84
54,Diego De Almagro,CL,-26.37,-70.05,2020-04-11,51.69,63.0,6.0,0.78
55,Formosa,AR,-26.18,-58.18,2020-04-11,57.2,87.0,0.0,3.36
56,Taltal,CL,-25.4,-70.48,2020-04-11,62.96,71.0,41.0,2.13
57,Hervey Bay,AU,-25.3,152.85,2020-04-11,84.2,62.0,94.0,13.87
58,Yulara,AU,-25.24,130.99,2020-04-11,87.8,11.0,29.0,6.93
59,Beloha,MG,-25.17,45.05,2020-04-11,78.04,65.0,29.0,14.88
60,Carnarvon,AU,-24.87,113.63,2020-04-11,82.4,74.0,57.0,14.99
61,Ampanihy,MG,-24.7,44.75,2020-04-11,78.94,57.0,1.0,11.36
62,Thabazimbi,ZA,-24.59,27.41,2020-04-11,57.99,94.0,88.0,4.05
63,Peruibe,BR,-24.32,-47.0,2020-04-11,69.62,69.0,76.0,3.31
64,Inhambane,MZ,-23.86,35.38,2020-04-11,69.8,88.0,20.0,6.11
65,Ilhabela,BR,-23.78,-45.36,2020-04-11,68.94,69.0,61.0,2.77
66,Alice Springs,AU,-23.7,133.88,2020-04-11,84.2,14.0,9.0,9.17
67,Antofagasta,CL,-23.65,-70.4,2020-04-11,64.4,88.0,75.0,10.29
68,Pozo Colorado,PY,-23.49,-58.8,2020-04-11,57.33,67.0,0.0,4.65
69,Manyana,BW,-23.4,21.72,2020-04-11,65.97,52.0,10.0,10.33
70,Fartura,BR,-23.39,-49.51,2020-04-11,60.28,77.0,43.0,8.01
71,Rikitea,PF,-23.12,-134.97,2020-04-11,77.41,77.0,48.0,10.69
72,Arraial Do Cabo,BR,-22.97,-42.03,2020-04-11,71.94,81.0,88.0,8.59
73,Otjimbingwe,NA,-22.35,16.13,2020-04-11,71.37,48.0,2.0,10.18
74,Noumea,NC,-22.28,166.46,2020-04-11,80.6,54.0,75.0,8.05
75,Henties Bay,NA,-22.12,14.28,2020-04-11,75.22,52.0,16.0,3.87
76,Sao Fidelis,BR,-21.65,-41.75,2020-04-11,69.08,85.0,95.0,0.87
77,Sao Joao Da Barra,BR,-21.64,-41.05,2020-04-11,70.88,85.0,95.0,4.9
78,Tadine,NC,-21.55,167.88,2020-04-11,75.72,70.0,61.0,8.7
79,Saint-Philippe,RE,-21.36,55.77,2020-04-11,79.0,61.0,75.0,14.99
80,Avarua,CK,-21.21,-159.78,2020-04-11,82.4,94.0,100.0,5.82
81,Vaini,TO,-21.2,-175.2,2020-04-11,78.8,69.0,20.0,4.7
82,Mackay,AU,-21.15,149.2,2020-04-11,87.01,66.0,50.0,12.75
83,Voh,NC,-20.97,164.7,2020-04-11,78.3,61.0,68.0,4.25
84,Karratha,AU,-20.74,116.85,2020-04-11,92.5,29.0,1.0,8.9
85,Mount Isa,AU,-20.73,139.5,2020-04-11,89.6,13.0,32.0,11.41
86,Okakarara,NA,-20.58,17.43,2020-04-11,63.21,61.0,29.0,8.7
87,Souillac,MU,-20.52,57.52,2020-04-11,81.0,74.0,75.0,18.34
88,Uyuni,BO,-20.46,-66.83,2020-04-11,42.37,14.0,0.0,7.56
89,Mahebourg,MU,-20.41,57.7,2020-04-11,81.0,78.0,40.0,17.22
90,Bambous Virieux,MU,-20.34,57.76,2020-04-11,81.0,74.0,75.0,18.34
91,Vila Velha,BR,-20.33,-40.29,2020-04-11,71.6,94.0,75.0,3.36
92,Poum,NC,-20.23,164.02,2020-04-11,78.67,65.0,91.0,6.4
93,Bowen,AU,-20.02,148.23,2020-04-11,89.6,49.0,40.0,6.93
94,Grand Gaube,MU,-20.01,57.66,2020-04-11,78.8,78.0,40.0,17.22
95,Isangel,VU,-19.55,169.27,2020-04-11,78.19,61.0,48.0,9.26
96,Alofi,NU,-19.06,-169.92,2020-04-11,80.6,69.0,37.0,4.7
97,Catalao,BR,-18.17,-47.95,2020-04-11,60.94,73.0,8.0,2.06
98,Opuwo,NA,-18.06,13.84,2020-04-11,68.23,54.0,15.0,7.78
99,Santa Helena De Goias,BR,-17.81,-50.6,2020-04-11,62.92,71.0,14.0,2.53
100,Ongwediva,NA,-17.78,15.77,2020-04-11,68.0,94.0,73.0,2.24
101,Tautira,PF,-17.73,-149.15,2020-04-11,82.4,74.0,100.0,3.36
102,Caravelas,BR,-17.71,-39.25,2020-04-11,76.69,87.0,37.0,7.92
103,Ilo,PE,-17.64,-71.34,2020-04-11,71.4,80.0,85.0,8.81
104,Varzea Da Palma,BR,-17.6,-44.73,2020-04-11,68.56,78.0,5.0,3.96
105,Mineiros,BR,-17.57,-52.55,2020-04-11,63.12,69.0,31.0,3.83
106,Soanierana Ivongo,MG,-16.92,49.58,2020-04-11,82.4,78.0,75.0,11.41
107,Tevaitoa,PF,-16.78,-151.5,2020-04-11,84.27,70.0,98.0,7.31
108,Camana,PE,-16.62,-72.71,2020-04-11,71.85,78.0,94.0,5.7
109,Faanui,PF,-16.48,-151.75,2020-04-11,83.48,71.0,96.0,8.16
110,Barao De Melgaco,BR,-16.19,-55.97,2020-04-11,77.0,78.0,20.0,3.36
111,Jamestown,SH,-15.94,-5.72,2020-04-11,70.65,74.0,32.0,16.35
112,Kununurra,AU,-15.77,128.73,2020-04-11,77.0,78.0,75.0,4.7
113,Guanay,BO,-15.5,-67.88,2020-04-11,65.44,65.0,94.0,0.36
114,Brumado,BR,-14.2,-41.67,2020-04-11,71.8,82.0,99.0,3.51
115,Macusani,PE,-14.08,-70.43,2020-04-11,36.21,21.0,68.0,3.42
116,Lufilufi,WS,-13.87,-171.6,2020-04-11,82.0,94.0,98.0,8.01
117,Alyangula,AU,-13.85,136.42,2020-04-11,77.0,100.0,75.0,4.7
118,Caconda,AO,-13.73,15.07,2020-04-11,60.04,61.0,62.0,3.91
119,Pisco,PE,-13.7,-76.22,2020-04-11,72.0,88.0,90.0,4.7
120,Ambilobe,MG,-13.2,49.05,2020-04-11,83.35,64.0,10.0,6.55
121,Tambopata,PE,-12.73,-69.18,2020-04-11,66.7,72.0,9.0,1.77
122,Riachao Das Neves,BR,-11.75,-44.91,2020-04-11,70.9,81.0,97.0,0.49
123,Mitsamiouli,KM,-11.38,43.28,2020-04-11,83.89,73.0,15.0,9.69
124,Mazamari,PE,-11.33,-74.53,2020-04-11,72.07,63.0,95.0,0.96
125,Barranca,PE,-10.75,-77.77,2020-04-11,73.53,76.0,37.0,7.47
126,Atuona,PF,-9.8,-139.03,2020-04-11,82.22,76.0,81.0,11.14
127,Waingapu,ID,-9.66,120.26,2020-04-11,83.88,69.0,68.0,8.08
128,Inhapi,BR,-9.22,-37.75,2020-04-11,70.86,82.0,60.0,3.13
129,Aripuana,BR,-9.17,-60.63,2020-04-11,72.86,94.0,85.0,1.23
130,Atambua,ID,-9.11,124.89,2020-04-11,79.52,71.0,17.0,1.43
131,Luanda,AO,-8.84,13.23,2020-04-11,77.0,94.0,40.0,4.7
132,Mbala,ZM,-8.84,31.37,2020-04-11,61.16,57.0,44.0,8.88
133,Tamandare,BR,-8.76,-35.1,2020-04-11,80.64,80.0,13.0,7.92
134,Caxito,AO,-8.58,13.66,2020-04-11,78.8,88.0,75.0,5.82
135,Merauke,ID,-8.47,140.33,2020-04-11,84.78,74.0,70.0,9.51
136,Georgetown,SH,-7.93,-14.42,2020-04-11,80.49,82.0,19.0,15.55
137,Chicama,PE,-7.84,-79.15,2020-04-11,74.12,73.0,93.0,4.81
138,Pitimbu,BR,-7.47,-34.81,2020-04-11,77.0,100.0,6.0,4.7
139,Kawalu,ID,-7.38,108.21,2020-04-11,89.67,45.0,5.0,5.77
140,Kalianget,ID,-7.05,113.93,2020-04-11,85.06,72.0,39.0,0.56
141,Cabedelo,BR,-6.98,-34.83,2020-04-11,77.0,94.0,12.0,6.13
142,Labuhan,ID,-6.88,112.21,2020-04-11,88.39,64.0,35.0,2.35
143,Sao Felix Do Xingu,BR,-6.64,-51.99,2020-04-11,73.31,91.0,75.0,0.58
144,Sao Geraldo Do Araguaia,BR,-6.4,-48.55,2020-04-11,73.83,88.0,58.0,3.15
145,Indramayu,ID,-6.33,108.32,2020-04-11,87.87,61.0,0.0,4.09
146,Kieta,PG,-6.22,155.63,2020-04-11,84.09,74.0,85.0,4.27
147,Soyo,AO,-6.13,12.37,2020-04-11,78.8,94.0,75.0,8.52
148,Kiunga,PG,-6.12,141.29,2020-04-11,88.3,70.0,87.0,2.46
149,Tual,ID,-5.67,132.75,2020-04-11,84.02,72.0,4.0,8.01
150,Sitio Novo Do Tocantins,BR,-5.52,-47.46,2020-04-11,77.0,94.0,100.0,2.57
151,Pringsewu,ID,-5.36,104.97,2020-04-11,92.37,50.0,4.0,0.6
152,Madang,PG,-5.22,145.8,2020-04-11,84.42,73.0,85.0,5.06
153,Quixeramobim,BR,-5.2,-39.29,2020-04-11,72.66,89.0,83.0,0.94
154,Touros,BR,-5.2,-35.46,2020-04-11,75.2,94.0,40.0,5.82
155,Victoria,SC,-4.62,55.45,2020-04-11,86.0,70.0,20.0,3.15
156,Bulungu,CD,-4.55,18.6,2020-04-11,73.24,76.0,82.0,1.79
157,Kokopo,PG,-4.35,152.26,2020-04-11,82.56,76.0,86.0,6.02
158,Mangai,CD,-4.05,19.53,2020-04-11,73.13,83.0,69.0,1.72
159,Aquiraz,BR,-3.9,-38.39,2020-04-11,78.8,88.0,40.0,2.24
160,Bengkulu,ID,-3.8,102.27,2020-04-11,89.01,54.0,99.0,2.8
161,Iquitos,PE,-3.75,-73.25,2020-04-11,77.0,94.0,75.0,2.04
162,Ambon,ID,-3.7,128.18,2020-04-11,85.05,68.0,13.0,3.31
163,Kampene,CD,-3.6,26.67,2020-04-11,71.24,82.0,100.0,1.25
164,Nabire,ID,-3.37,135.48,2020-04-11,86.63,70.0,57.0,4.9
165,Tefe,BR,-3.35,-64.71,2020-04-11,73.62,88.0,85.0,0.27
166,Malindi,KE,-3.22,40.12,2020-04-11,80.6,88.0,40.0,16.11
167,Tutoia,BR,-2.76,-42.27,2020-04-11,79.14,84.0,98.0,4.43
168,Pangkalanbuun,ID,-2.68,111.62,2020-04-11,85.53,76.0,84.0,5.17
169,Vanimo,PG,-2.67,141.3,2020-04-11,83.59,76.0,98.0,6.6
170,Kavieng,PG,-2.57,150.8,2020-04-11,84.4,74.0,82.0,8.39
171,Lorengau,PG,-2.02,147.27,2020-04-11,84.2,72.0,66.0,4.43
172,Cururupu,BR,-1.83,-44.87,2020-04-11,77.47,91.0,100.0,2.98
173,Padang,ID,-0.95,100.35,2020-04-11,87.03,67.0,66.0,3.02
174,Solok,ID,-0.79,100.66,2020-04-11,82.71,65.0,66.0,1.77
175,Puerto Ayora,EC,-0.74,-90.35,2020-04-11,80.01,88.0,93.0,3.0
176,Port-Gentil,GA,-0.72,8.78,2020-04-11,81.59,81.0,100.0,9.98
177,Hithadhoo,MV,-0.6,73.08,2020-04-11,85.05,61.0,54.0,6.98
178,Owando,CG,-0.48,15.9,2020-04-11,73.87,85.0,100.0,2.33
179,Puerto Leguizamo,CO,-0.19,-74.78,2020-04-11,70.86,92.0,91.0,0.87
180,Kisangani,CD,0.52,25.2,2020-04-11,74.82,83.0,87.0,1.21
181,Muisne,EC,0.6,-80.03,2020-04-11,76.75,86.0,97.0,6.08
182,Masindi,UG,1.67,31.71,2020-04-11,71.73,59.0,24.0,4.94
183,Mogadishu,SO,2.04,45.34,2020-04-11,87.8,62.0,75.0,6.93
184,Bandar,ID,2.05,99.75,2020-04-11,93.54,43.0,70.0,3.42
185,Kudahuvadhoo,MV,2.67,72.89,2020-04-11,84.27,68.0,28.0,5.57
186,Butaritari,KI,3.07,172.79,2020-04-11,84.52,74.0,65.0,9.4
187,Inirida,CO,3.87,-67.92,2020-04-11,71.91,94.0,100.0,1.52
188,Saint-Georges,GF,3.9,-51.8,2020-04-11,74.16,95.0,100.0,1.88
189,Limbe,CM,4.02,9.21,2020-04-11,77.0,94.0,75.0,6.93
190,Meulaboh,ID,4.14,96.13,2020-04-11,88.18,59.0,68.0,4.41
191,Miri,MY,4.41,114.01,2020-04-11,87.8,79.0,75.0,9.17
192,Axim,GH,4.87,-2.24,2020-04-11,79.79,84.0,81.0,5.21
193,Yenagoa,NG,4.92,6.26,2020-04-11,77.16,89.0,60.0,5.99
194,Cayenne,GF,4.93,-52.33,2020-04-11,78.8,100.0,97.0,8.77
195,Zemio,CF,5.03,25.14,2020-04-11,75.58,68.0,87.0,3.42
196,Marquetalia,CO,5.3,-75.06,2020-04-11,61.75,64.0,100.0,3.42
197,Hobyo,SO,5.35,48.53,2020-04-11,85.93,59.0,62.0,11.03
198,Winneba,GH,5.35,-0.62,2020-04-11,78.8,88.0,58.0,4.7
199,Sinnamary,GF,5.38,-52.95,2020-04-11,78.8,81.0,97.0,13.24
200,Warri,NG,5.52,5.75,2020-04-11,76.53,89.0,43.0,8.9
201,Anloga,GH,5.79,0.9,2020-04-11,80.6,88.0,20.0,2.24
202,Sabang,ID,5.89,95.32,2020-04-11,85.39,72.0,22.0,12.39
203,Ikom,NG,5.97,8.71,2020-04-11,76.17,92.0,100.0,1.7
204,Hambantota,LK,6.12,81.12,2020-04-11,87.01,63.0,5.0,11.99
205,Kuah,MY,6.33,99.84,2020-04-11,93.2,63.0,20.0,3.36
206,Kinablangan,PH,7.69,126.55,2020-04-11,84.97,63.0,28.0,10.69
207,Batticaloa,LK,7.71,81.69,2020-04-11,89.31,53.0,8.0,9.4
208,Remedios,PA,8.23,-81.83,2020-04-11,79.16,73.0,62.0,6.67
209,Bandarbeyla,SO,9.49,50.81,2020-04-11,83.1,59.0,49.0,7.05
210,Calamar,CO,10.25,-74.91,2020-04-11,82.4,83.0,75.0,12.75
211,Birao,CF,10.28,22.79,2020-04-11,86.76,14.0,66.0,8.95
212,Sikasso,ML,10.92,-7.0,2020-04-11,78.33,54.0,7.0,4.85
213,Kolondieba,ML,11.09,-6.89,2020-04-11,78.37,54.0,3.0,4.56
214,Scarborough,TT,11.18,-60.73,2020-04-11,78.8,78.0,20.0,4.7
215,Bang Saphan,TH,11.21,99.51,2020-04-11,91.4,66.0,40.0,8.05
216,Port Blair,IN,11.67,92.75,2020-04-11,84.13,66.0,25.0,7.23
217,Dutse,NG,11.76,9.34,2020-04-11,77.94,15.0,99.0,3.76
218,Prachuap Khiri Khan,TH,11.82,99.78,2020-04-11,89.83,53.0,50.0,7.18
219,San Rafael Del Sur,NI,11.85,-86.44,2020-04-11,82.4,69.0,20.0,9.17
220,San Policarpo,PH,12.18,125.51,2020-04-11,82.94,65.0,27.0,6.53
221,Marabba,SD,12.35,32.18,2020-04-11,86.97,11.0,47.0,17.47
222,Puro,PH,12.48,123.38,2020-04-11,86.52,59.0,31.0,3.56
223,Tuy Hoa,VN,13.08,109.3,2020-04-11,85.46,66.0,63.0,6.2
224,Bathsheba,BB,13.22,-59.52,2020-04-11,78.8,74.0,40.0,14.99
225,Chon Buri,TH,13.36,100.98,2020-04-11,97.0,56.0,40.0,9.17
226,Segou,ML,13.43,-6.22,2020-04-11,82.18,44.0,57.0,10.04
227,Acajutla,SV,13.59,-89.83,2020-04-11,75.0,56.0,3.0,7.27
228,Cabra,PH,13.89,120.05,2020-04-11,83.64,71.0,2.0,3.67
229,Pandan,PH,14.05,124.17,2020-04-11,81.63,76.0,40.0,7.45
230,Champerico,GT,14.3,-91.92,2020-04-11,81.41,77.0,58.0,8.28
231,Filingue,NE,14.35,3.32,2020-04-11,80.19,32.0,71.0,4.7
232,Dinahican,PH,14.72,121.72,2020-04-11,84.18,68.0,36.0,9.04
233,Pout,SN,14.77,-17.06,2020-04-11,71.6,60.0,0.0,5.82
234,Tahoua,NE,14.89,5.27,2020-04-11,86.0,25.0,100.0,4.7
235,Sao Filipe,CV,14.9,-24.5,2020-04-11,74.14,76.0,38.0,6.67
236,Praia,CV,14.92,-23.51,2020-04-11,73.4,73.0,41.0,17.22
237,Aguacatan,GT,15.34,-91.31,2020-04-11,52.0,95.0,89.0,0.22
238,Abalak,NE,15.45,6.28,2020-04-11,77.95,25.0,100.0,6.44
239,Puerto Escondido,MX,15.85,-97.07,2020-04-11,79.36,66.0,29.0,3.98
240,Saint-Louis,SN,16.33,-15.0,2020-04-11,73.9,29.0,0.0,4.99
241,Goundam,ML,16.41,-3.67,2020-04-11,77.43,26.0,0.0,2.8
242,Gao,ML,16.64,1.64,2020-04-11,80.83,29.0,99.0,10.67
243,Acapulco,MX,16.86,-99.89,2020-04-11,77.0,94.0,5.0,4.7
244,Salalah,OM,17.02,54.09,2020-04-11,84.2,74.0,40.0,6.93
245,Ponta Do Sol,CV,17.2,-25.09,2020-04-11,71.6,83.0,40.0,33.33
246,Xalpatlahuac,MX,17.47,-98.62,2020-04-11,62.56,36.0,29.0,5.75
247,Nouakchott,MR,18.09,-15.98,2020-04-11,71.6,73.0,0.0,10.29
248,Les Cayes,HT,18.2,-73.75,2020-04-11,79.0,80.0,97.0,5.59
249,Road Town,VG,18.42,-64.62,2020-04-11,80.6,78.0,40.0,6.93
250,Karimnagar,IN,18.43,79.15,2020-04-11,100.63,15.0,3.0,8.01
251,Coahuayana,MX,18.73,-103.68,2020-04-11,75.69,45.0,0.0,3.29
252,Araouane,ML,18.9,-3.53,2020-04-11,77.14,14.0,0.0,3.06
253,Amecameca,MX,19.12,-98.77,2020-04-11,73.4,20.0,20.0,4.7
254,San Patricio,MX,19.22,-104.7,2020-04-11,76.41,60.0,7.0,7.74
255,George Town,KY,19.29,-81.37,2020-04-11,79.0,87.0,78.0,1.01
256,Hilo,US,19.73,-155.09,2020-04-11,75.2,83.0,90.0,3.36
257,Tombouctou,ML,20.0,-3.0,2020-04-11,77.79,12.0,0.0,5.97
258,Vega De Alatorre,MX,20.03,-96.63,2020-04-11,79.0,85.0,24.0,6.69
259,Tessalit,ML,20.2,1.01,2020-04-11,77.04,15.0,20.0,7.47
260,Basco,PH,20.45,121.97,2020-04-11,76.06,72.0,82.0,6.22
261,Thai Binh,VN,20.45,106.33,2020-04-11,80.6,78.0,100.0,4.7
262,Atar,MR,20.52,-13.05,2020-04-11,73.31,31.0,0.0,11.63
263,Moa,CU,20.66,-74.94,2020-04-11,75.02,75.0,56.0,3.24
264,Kahului,US,20.89,-156.47,2020-04-11,75.2,73.0,40.0,9.17
265,Makakilo City,US,21.35,-158.09,2020-04-11,80.6,73.0,1.0,5.82
266,Mecca,SA,21.43,39.83,2020-04-11,78.26,17.0,57.0,11.45
267,Ahuimanu,US,21.44,-157.84,2020-04-11,78.8,57.0,75.0,11.41
268,Qinzhou,CN,21.95,108.62,2020-04-11,79.59,76.0,94.0,9.42
269,Kapaa,US,22.08,-159.32,2020-04-11,77.0,69.0,20.0,10.29
270,Sur,OM,22.57,59.53,2020-04-11,93.58,21.0,54.0,8.43
271,Cabo San Lucas,MX,22.89,-109.91,2020-04-11,68.0,68.0,81.0,14.63
272,Naliya,IN,23.27,68.83,2020-04-11,91.6,30.0,0.0,6.08
273,Todos Santos,MX,23.45,-110.22,2020-04-11,68.0,81.0,98.0,1.99
274,Kuju,IN,23.72,85.5,2020-04-11,91.4,24.0,0.0,5.82
275,Cedral,MX,23.8,-100.73,2020-04-11,70.27,34.0,74.0,6.93
276,Cockburn Town,BS,24.03,-74.52,2020-04-11,77.05,85.0,8.0,5.53
277,Ishigaki,JP,24.34,124.16,2020-04-11,77.0,73.0,40.0,10.29
278,Andros Town,BS,24.7,-77.77,2020-04-11,73.4,78.0,75.0,4.7
279,Ormara,PK,25.21,64.64,2020-04-11,85.62,49.0,2.0,2.1
280,Esna,EG,25.29,32.55,2020-04-11,60.8,55.0,25.0,3.36
281,Qujing,CN,25.48,103.78,2020-04-11,70.16,24.0,23.0,2.82
282,Adrar,DZ,25.75,-1.0,2020-04-11,76.6,17.0,0.0,9.1
283,Nishihara,JP,26.18,127.76,2020-04-11,75.2,60.0,40.0,11.41
284,Sayhat,SA,26.49,50.04,2020-04-11,93.2,74.0,94.0,9.17
285,Nago,JP,26.59,127.98,2020-04-11,75.2,60.0,40.0,12.75
286,Santa Barbara,MX,26.8,-105.82,2020-04-11,52.45,24.0,33.0,6.91
287,Caohai,CN,26.87,104.28,2020-04-11,52.14,38.0,97.0,8.03
288,Sabha,LY,27.04,14.43,2020-04-11,63.48,25.0,0.0,15.86
289,Jensen Beach,US,27.25,-80.23,2020-04-11,77.0,73.0,90.0,9.17
290,Abnub,EG,27.27,31.15,2020-04-11,55.4,58.0,0.0,8.05
291,Gopamau,IN,27.55,80.28,2020-04-11,100.71,13.0,0.0,11.9
292,Kathmandu,NP,27.72,85.32,2020-04-11,75.2,33.0,20.0,3.36
293,Tezu,IN,27.92,96.17,2020-04-11,94.66,14.0,0.0,5.06
294,Guerrero Negro,MX,27.98,-114.06,2020-04-11,59.61,67.0,1.0,9.6
295,Pokhara,NP,28.23,83.98,2020-04-11,82.54,12.0,14.0,4.32
296,Santa Isabel,MX,28.38,-113.35,2020-04-11,51.62,56.0,0.0,7.36
297,Los Llanos De Aridane,ES,28.66,-17.92,2020-04-11,68.0,72.0,90.0,6.93
298,Teguise,ES,29.06,-13.56,2020-04-11,64.4,77.0,20.0,9.17
299,Awjilah,LY,29.11,21.29,2020-04-11,58.15,57.0,0.0,8.32
300,Jumla,NP,29.27,82.18,2020-04-11,60.01,64.0,14.0,2.84
301,Bayan,KW,29.3,48.05,2020-04-11,78.8,31.0,22.0,16.11
302,Suez,EG,29.97,32.53,2020-04-11,60.37,60.0,0.0,4.68
303,Sakakah,SA,29.97,40.21,2020-04-11,55.4,50.0,20.0,8.05
304,Callaway,US,30.15,-85.57,2020-04-11,60.8,44.0,1.0,6.93
305,Rudbar,AF,30.15,62.6,2020-04-11,84.04,23.0,100.0,8.57
306,Ajdabiya,LY,30.76,20.23,2020-04-11,58.26,66.0,2.0,5.79
307,Yushan,CN,31.38,120.95,2020-04-11,55.0,87.0,90.0,15.66
308,Kushima,JP,31.46,131.23,2020-04-11,66.2,48.0,75.0,8.05
309,Nichinan,JP,31.6,131.37,2020-04-11,66.2,48.0,75.0,10.29
310,Hamilton,BM,32.29,-64.78,2020-04-11,64.0,82.0,90.0,20.8
311,Asfi,MA,32.3,-9.24,2020-04-11,61.05,84.0,86.0,14.9
312,Saint George,BM,32.38,-64.68,2020-04-11,64.99,82.0,90.0,18.34
313,Guangyuan,CN,32.44,105.82,2020-04-11,60.01,28.0,92.0,8.19
314,Ponta Do Sol,PT,32.67,-17.1,2020-04-11,64.4,77.0,20.0,10.29
315,Porto Santo,PT,33.07,-16.34,2020-04-11,64.4,72.0,20.0,10.29
316,Camacha,PT,33.08,-16.33,2020-04-11,64.4,77.0,40.0,11.41
317,Muroto,JP,33.28,134.15,2020-04-11,59.0,58.0,75.0,11.41
318,Jand,PK,33.43,72.02,2020-04-11,83.28,28.0,63.0,2.77
319,Lubbock,US,33.6,-101.83,2020-04-11,57.0,71.0,20.0,12.75
320,Tabas,IR,33.6,56.92,2020-04-11,79.74,27.0,98.0,24.9
321,Shingu,JP,33.73,135.98,2020-04-11,57.2,54.0,75.0,12.75
322,Rancho Palos Verdes,US,33.74,-118.39,2020-04-11,57.99,82.0,1.0,3.36
323,Show Low,US,34.25,-110.03,2020-04-11,46.4,35.0,1.0,1.61
324,Panjab,AF,34.39,67.02,2020-04-11,42.31,34.0,98.0,3.6
325,Dillon,US,34.42,-79.37,2020-04-11,44.01,93.0,1.0,4.99
326,Hot Springs,US,34.5,-93.06,2020-04-11,48.2,57.0,1.0,5.82
327,Lompoc,US,34.64,-120.46,2020-04-11,55.4,93.0,1.0,8.05
328,Tateyama,JP,34.98,139.87,2020-04-11,60.01,44.0,75.0,6.93
329,Katsuura,JP,35.13,140.3,2020-04-11,62.01,38.0,75.0,9.17
330,Pampa,US,35.54,-100.96,2020-04-11,60.8,58.0,1.0,24.16
331,Hasaki,JP,35.73,140.83,2020-04-11,68.0,46.0,20.0,13.87
332,Zhoucheng,CN,35.91,116.31,2020-04-11,63.09,29.0,18.0,9.71
333,Greeneville,US,36.16,-82.83,2020-04-11,41.0,48.0,1.0,2.51
334,Pahrump,US,36.21,-115.98,2020-04-11,54.0,57.0,40.0,8.05
335,Medea,DZ,36.26,2.75,2020-04-11,50.0,93.0,75.0,0.98
336,Qazvin,IR,36.28,50.0,2020-04-11,44.6,100.0,90.0,11.41
337,Rogers,US,36.37,-95.58,2020-04-11,57.2,37.0,1.0,8.05
338,Pacific Grove,US,36.62,-121.92,2020-04-11,55.99,76.0,20.0,6.93
339,Half Moon Bay,US,37.46,-122.43,2020-04-11,55.99,87.0,20.0,6.93
340,Alamosa,US,37.47,-105.87,2020-04-11,42.8,18.0,1.0,4.7
341,Eregli,TR,37.51,34.05,2020-04-11,47.64,33.0,0.0,4.12
342,Vila Franca Do Campo,PT,37.72,-25.43,2020-04-11,57.2,76.0,20.0,6.93
343,Lithakia,GR,37.72,20.83,2020-04-11,44.6,93.0,0.0,4.7
344,Dodge City,US,37.75,-100.02,2020-04-11,57.2,58.0,1.0,9.17
345,Soma,JP,37.8,140.92,2020-04-11,55.99,43.0,40.0,14.99
346,Cefalu,IT,38.04,14.02,2020-04-11,55.99,81.0,9.0,3.0
347,Siderno,IT,38.28,16.3,2020-04-11,57.99,62.0,0.0,6.93
348,Great Bend,US,38.36,-98.76,2020-04-11,55.4,50.0,1.0,18.34
349,Shache,CN,38.42,77.24,2020-04-11,71.96,11.0,76.0,5.55
350,Ribeira Grande,PT,38.52,-28.7,2020-04-11,60.84,72.0,89.0,4.76
351,Elvas,PT,38.88,-7.16,2020-04-11,54.0,93.0,56.0,2.24
352,Lagoa,PT,39.05,-27.98,2020-04-11,61.02,71.0,71.0,7.63
353,Bergama,TR,39.12,27.18,2020-04-11,57.2,67.0,0.0,5.82
354,Carbonia,IT,39.17,8.52,2020-04-11,52.0,100.0,5.0,3.36
355,Hamilton,US,39.18,-84.53,2020-04-11,41.0,74.0,1.0,4.45
356,Shitanjing,CN,39.23,106.34,2020-04-11,48.56,21.0,0.0,8.84
357,Fallon,US,39.47,-118.78,2020-04-11,48.99,52.0,1.0,3.36
358,Balkanabat,TM,39.51,54.37,2020-04-11,54.55,70.0,82.0,1.61
359,Jiuquan,CN,39.74,98.52,2020-04-11,63.41,11.0,0.0,16.24
360,Indiana,US,40.0,-86.25,2020-04-11,44.01,65.0,40.0,3.36
361,Lancaster,US,40.25,-76.25,2020-04-11,39.99,48.0,1.0,16.11
362,Yumen,CN,40.28,97.2,2020-04-11,63.03,11.0,0.0,22.91
363,Artyom,AZ,40.47,50.33,2020-04-11,51.8,76.0,75.0,4.7
364,Fortuna,US,40.6,-124.16,2020-04-11,53.01,100.0,90.0,3.89
365,Gerede,TR,40.8,32.2,2020-04-11,44.19,32.0,0.0,2.86
366,Elko,US,41.0,-115.5,2020-04-11,48.0,39.0,1.0,5.79
367,Aksu,CN,41.12,80.26,2020-04-11,67.8,14.0,78.0,5.46
368,Gazojak,TM,41.19,61.4,2020-04-11,64.47,27.0,30.0,9.64
369,Kewanee,US,41.25,-89.92,2020-04-11,46.99,52.0,90.0,3.36
370,Nantucket,US,41.28,-70.1,2020-04-11,41.0,86.0,1.0,12.75
371,Bethel,US,41.37,-73.41,2020-04-11,45.0,56.0,90.0,9.17
372,Boyabat,TR,41.47,34.77,2020-04-11,51.35,39.0,0.0,4.83
373,Bafra,TR,41.57,35.91,2020-04-11,46.4,61.0,10.0,4.68
374,Tsalka,GE,41.59,44.09,2020-04-11,39.85,38.0,65.0,5.06
375,Korla,CN,41.76,86.15,2020-04-11,68.16,15.0,33.0,4.83
376,Fiumicino,IT,41.77,12.23,2020-04-11,54.0,75.0,0.0,1.12
377,Derbent,RU,42.07,48.29,2020-04-11,50.76,61.0,80.0,4.05
378,Palmer,US,42.16,-72.33,2020-04-11,39.99,64.0,1.0,10.29
379,Chifeng,CN,42.27,118.96,2020-04-11,59.38,21.0,0.0,19.8
380,Khasan,RU,42.43,130.64,2020-04-11,45.36,60.0,66.0,10.87
381,Helong,CN,42.54,129.0,2020-04-11,50.52,38.0,52.0,8.48
382,Muros,ES,42.78,-9.06,2020-04-11,57.0,100.0,75.0,1.12
383,Georgiyevka,KZ,43.04,74.71,2020-04-11,46.4,65.0,20.0,8.95
384,Mountain Home,US,43.13,-115.69,2020-04-11,62.6,29.0,1.0,8.05
385,Carballo,ES,43.21,-8.69,2020-04-11,55.99,100.0,90.0,2.24
386,Nemuro,JP,43.32,145.57,2020-04-11,35.6,55.0,20.0,14.99
387,North Bend,US,43.41,-124.22,2020-04-11,50.0,93.0,90.0,12.75
388,Erenhot,CN,43.65,111.98,2020-04-11,53.15,21.0,0.0,10.85
389,Gornoye Loo,RU,43.71,39.6,2020-04-11,51.01,87.0,90.0,4.47
390,Komsomolskiy,RU,43.98,46.7,2020-04-11,52.2,51.0,0.0,2.21
391,Pierre,US,44.37,-100.35,2020-04-11,46.0,60.0,20.0,5.82
392,Arkhipo-Osipovka,RU,44.37,38.52,2020-04-11,52.41,70.0,51.0,12.37
393,Divnomorskoye,RU,44.5,38.14,2020-04-11,51.67,75.0,46.0,9.89
394,Kamen-Rybolov,RU,44.75,132.04,2020-04-11,47.23,44.0,42.0,13.89
395,Uhlove,UA,44.82,33.6,2020-04-11,48.96,60.0,5.0,13.69
396,Briancon,FR,44.9,6.65,2020-04-11,51.01,37.0,0.0,1.14
397,Marinette,US,45.1,-87.63,2020-04-11,35.6,80.0,75.0,3.36
398,Aberdeen,US,45.46,-98.49,2020-04-11,43.0,65.0,20.0,6.93
399,Voyinka,UA,45.87,33.99,2020-04-11,48.61,59.0,16.0,13.18
400,Domodossola,IT,46.12,8.29,2020-04-11,54.0,75.0,0.0,4.47
401,Yashkul,RU,46.17,45.34,2020-04-11,51.28,47.0,0.0,10.45
402,Maniwaki,CA,46.38,-75.97,2020-04-11,26.28,95.0,15.0,8.21
403,Kyrylivka,UA,46.38,35.37,2020-04-11,49.57,60.0,14.0,15.73
404,Vostok,RU,46.49,135.88,2020-04-11,39.47,49.0,72.0,4.63
405,Autun,FR,46.95,4.3,2020-04-11,42.8,86.0,0.0,0.78
406,Marystown,CA,47.17,-55.15,2020-04-11,34.41,93.0,82.0,14.32
407,La Baule-Escoublac,FR,47.29,-2.36,2020-04-11,51.8,87.0,0.0,1.12
408,Volnovakha,UA,47.6,37.5,2020-04-11,46.99,100.0,7.0,14.0
409,Torbay,CA,47.67,-52.73,2020-04-11,39.0,93.0,90.0,5.82
410,Altay,CN,47.87,88.12,2020-04-11,49.96,39.0,95.0,2.24
411,Leninskoye,RU,47.94,132.62,2020-04-11,51.13,39.0,11.0,8.61
412,Saly,HU,47.95,20.67,2020-04-11,50.09,48.0,33.0,4.7
413,Bonavista,CA,48.65,-53.11,2020-04-11,37.0,84.0,86.0,5.01
414,Atikokan,CA,48.76,-91.62,2020-04-11,27.88,89.0,84.0,5.66
415,Chalons-En-Champagne,FR,48.95,4.37,2020-04-11,48.2,87.0,79.0,6.93
416,Erdenet,MN,49.03,104.08,2020-04-11,55.17,20.0,0.0,8.01
417,Shubarkuduk,KZ,49.14,56.49,2020-04-11,52.02,41.0,95.0,13.42
418,Carman,CA,49.5,-98.0,2020-04-11,44.6,70.0,90.0,9.17
419,Ulaangom,MN,49.98,92.07,2020-04-11,32.25,70.0,62.0,2.15
420,Suhbaatar,MN,50.23,106.21,2020-04-11,63.27,20.0,0.0,7.81
421,Erzin,RU,50.26,95.16,2020-04-11,35.46,59.0,94.0,3.15
422,Aqtobe,KZ,50.28,57.21,2020-04-11,53.6,40.0,94.0,13.42
423,Kholtoson,RU,50.3,103.31,2020-04-11,59.97,19.0,43.0,5.03
424,Talakan,RU,50.32,130.37,2020-04-11,54.01,37.0,22.0,7.47
425,High River,CA,50.58,-113.87,2020-04-11,27.0,86.0,90.0,9.04
426,Severo-Kurilsk,RU,50.68,156.12,2020-04-11,31.95,93.0,49.0,6.55
427,Port Hardy,CA,50.7,-127.42,2020-04-11,42.8,75.0,20.0,5.82
428,Derzhavinsk,KZ,51.1,66.32,2020-04-11,49.44,47.0,100.0,12.84
429,Zmeinogorsk,RU,51.16,82.19,2020-04-11,46.83,44.0,0.0,4.14
430,Aksay,KZ,51.17,52.99,2020-04-11,50.9,45.0,0.0,15.19
431,Astana,KZ,51.18,71.45,2020-04-11,48.2,49.0,10.0,6.71
432,Gorin,RU,51.2,136.67,2020-04-11,48.4,46.0,0.0,0.34
433,Novotroitsk,RU,51.2,58.33,2020-04-11,44.6,75.0,75.0,13.42
434,Dergachi,RU,51.23,48.77,2020-04-11,48.85,47.0,95.0,15.66
435,Chadan,RU,51.28,91.58,2020-04-11,43.99,41.0,24.0,0.58
436,Kamenka,RU,51.32,42.77,2020-04-11,35.01,94.0,96.0,9.82
437,Repnoye,RU,51.59,43.19,2020-04-11,41.0,91.0,100.0,8.01
438,Berezovyy,RU,51.67,135.7,2020-04-11,53.31,34.0,0.0,1.88
439,Tahe,CN,52.33,124.73,2020-04-11,55.54,37.0,0.0,9.78
440,Jasper,CA,52.88,-118.09,2020-04-11,20.23,78.0,99.0,5.84
441,Okha,RU,53.57,142.95,2020-04-11,34.23,86.0,0.0,8.61
442,Kirgiz-Miyaki,RU,53.63,54.8,2020-04-11,45.37,56.0,3.0,13.67
443,Zeya,RU,53.75,127.27,2020-04-11,54.39,43.0,25.0,7.47
444,Yepifan,RU,53.83,38.55,2020-04-11,39.02,65.0,74.0,10.4
445,Amazar,RU,53.86,120.88,2020-04-11,55.74,37.0,4.0,3.44
446,Sergeyevka,KZ,53.88,67.42,2020-04-11,48.83,53.0,34.0,8.48
447,Prince Rupert,CA,54.32,-130.32,2020-04-11,44.6,45.0,1.0,10.29
448,Sobolevo,RU,54.43,31.9,2020-04-11,34.21,83.0,99.0,9.04
449,Killybegs,IE,54.63,-8.45,2020-04-11,46.0,94.0,97.0,1.01
450,Chumikan,RU,54.72,135.31,2020-04-11,48.7,54.0,18.0,7.02
451,Flin Flon,CA,54.77,-101.86,2020-04-11,22.15,94.0,90.0,12.44
452,Smithers,CA,54.78,-127.17,2020-04-11,35.6,37.0,1.0,6.93
453,Svetlogorsk,RU,54.94,20.15,2020-04-11,32.0,69.0,0.0,4.47
454,Blyth,GB,55.13,-1.51,2020-04-11,55.99,76.0,100.0,5.82
455,Tynda,RU,55.17,124.72,2020-04-11,46.2,59.0,69.0,6.17
456,Ketchikan,US,55.34,-131.65,2020-04-11,46.4,45.0,1.0,12.75
457,Thompson,CA,55.74,-97.86,2020-04-11,28.4,68.0,90.0,3.36
458,Shestakovo,RU,56.49,103.96,2020-04-11,36.68,81.0,100.0,5.93
459,Serebryanyy Bor,RU,56.8,124.8,2020-04-11,39.25,64.0,83.0,6.55
460,Barda,RU,56.93,55.59,2020-04-11,45.37,54.0,100.0,18.37
461,Sitka,US,57.05,-135.33,2020-04-11,42.8,35.0,1.0,4.7
462,Ust-Ishim,RU,57.69,71.17,2020-04-11,45.07,83.0,73.0,5.14
463,Kodiak,US,57.79,-152.41,2020-04-11,37.4,69.0,75.0,9.17
464,Wick,GB,58.43,-3.08,2020-04-11,50.0,93.0,98.0,4.7
465,Varhaug,NO,58.61,5.65,2020-04-11,43.0,88.0,75.0,8.05
466,Kodinsk,RU,58.69,99.18,2020-04-11,43.93,57.0,5.0,7.65
467,Kologriv,RU,58.83,44.32,2020-04-11,33.26,83.0,95.0,5.21
468,Nizhniy Kuranakh,RU,58.84,125.49,2020-04-11,38.82,62.0,97.0,5.39
469,Okhotsk,RU,59.38,143.3,2020-04-11,33.1,91.0,78.0,3.49
470,Magadan,RU,59.57,150.8,2020-04-11,25.68,94.0,46.0,3.6
471,Nikolskoye,RU,59.7,30.79,2020-04-11,33.01,77.0,75.0,8.95
472,Totma,RU,59.97,42.76,2020-04-11,31.28,87.0,94.0,4.52
473,Nanortalik,GL,60.14,-45.24,2020-04-11,32.5,89.0,100.0,4.03
474,Haines Junction,CA,60.75,-137.51,2020-04-11,16.93,80.0,27.0,0.98
475,Narsaq,GL,60.92,-46.05,2020-04-11,46.4,33.0,100.0,18.34
476,Yerbogachen,RU,61.28,108.01,2020-04-11,36.66,79.0,100.0,7.34
477,Soderhamn,SE,61.3,17.06,2020-04-11,43.0,89.0,9.0,1.01
478,Talaya,RU,61.38,152.75,2020-04-11,23.18,87.0,23.0,6.93
479,Vagur,FO,61.47,-6.81,2020-04-11,46.09,98.0,100.0,15.26
480,Wasilla,US,61.58,-149.44,2020-04-11,39.2,23.0,1.0,4.7
481,Suoyarvi,RU,62.08,32.35,2020-04-11,30.99,87.0,29.0,6.89
482,Klaksvik,FO,62.23,-6.59,2020-04-11,44.6,100.0,100.0,8.05
483,Yellowknife,CA,62.46,-114.35,2020-04-11,15.01,78.0,75.0,8.05
484,Khandyga,RU,62.67,135.6,2020-04-11,35.89,86.0,28.0,9.64
485,Rochegda,RU,62.8,43.25,2020-04-11,27.86,87.0,15.0,4.07
486,Kuopio,FI,62.89,27.68,2020-04-11,28.4,92.0,90.0,8.05
487,Ostersund,SE,63.18,14.64,2020-04-11,30.2,80.0,40.0,5.82
488,Nyurba,RU,63.28,118.33,2020-04-11,38.57,70.0,100.0,8.52
489,Mayo,CA,63.59,-135.9,2020-04-11,32.0,87.0,75.0,2.24
490,Nizhniy Odes,RU,63.64,54.86,2020-04-11,25.5,93.0,99.0,6.38
491,Iqaluit,CA,63.75,-68.51,2020-04-11,14.0,78.0,75.0,3.09
492,Grindavik,IS,63.84,-22.43,2020-04-11,42.8,100.0,75.0,8.05
493,Nuuk,GL,64.18,-51.72,2020-04-11,28.4,79.0,100.0,1.12
494,Hofn,IS,64.25,-15.21,2020-04-11,43.63,85.0,100.0,12.1
495,Tura,RU,64.28,100.25,2020-04-11,32.41,78.0,100.0,17.29
496,Provideniya,RU,64.38,-173.3,2020-04-11,16.45,95.0,100.0,11.83
497,Nome,US,64.5,-165.41,2020-04-11,32.0,98.0,90.0,10.29
498,Anadyr,RU,64.75,177.48,2020-04-11,1.4,84.0,52.0,15.66
499,Fairbanks,US,64.84,-147.72,2020-04-11,33.8,86.0,90.0,3.47
500,Olafsvik,IS,64.89,-23.71,2020-04-11,36.86,83.0,49.0,16.55
501,Tarko-Sale,RU,64.92,77.78,2020-04-11,34.66,98.0,100.0,21.39
502,Norman Wells,CA,65.28,-126.83,2020-04-11,24.8,53.0,75.0,2.24
503,Tasiilaq,GL,65.61,-37.64,2020-04-11,19.4,67.0,98.0,2.24
504,Staryy Nadym,RU,65.61,72.68,2020-04-11,37.04,99.0,100.0,20.22
505,Akureyri,IS,65.68,-18.09,2020-04-11,26.6,100.0,90.0,5.82
506,Krasnoselkup,RU,65.7,82.47,2020-04-11,33.57,99.0,100.0,15.3
507,Pangody,RU,65.85,74.49,2020-04-11,36.16,98.0,100.0,19.26
508,Dalvik,IS,65.97,-18.53,2020-04-11,28.4,100.0,90.0,6.93
509,Aykhal,RU,66.0,111.5,2020-04-11,33.8,50.0,100.0,11.18
510,Inta,RU,66.03,60.17,2020-04-11,22.8,96.0,100.0,11.77
511,Pangnirtung,CA,66.15,-65.71,2020-04-11,14.45,79.0,98.0,4.47
512,Egvekinot,RU,66.32,-179.17,2020-04-11,8.85,84.0,22.0,3.31
513,Udachnyy,RU,66.42,112.4,2020-04-11,33.8,50.0,76.0,11.18
514,Zhigansk,RU,66.77,123.37,2020-04-11,32.88,92.0,50.0,15.73
515,Kovdor,RU,67.57,30.48,2020-04-11,22.93,91.0,71.0,7.31
516,Batagay,RU,67.63,134.63,2020-04-11,35.15,78.0,3.0,8.99
517,Sorland,NO,67.67,12.69,2020-04-11,34.11,80.0,100.0,10.89
518,Kiruna,SE,67.86,20.23,2020-04-11,19.4,62.0,44.0,6.93
519,Bilibino,RU,68.05,166.44,2020-04-11,13.44,85.0,100.0,3.89
520,Ostrovnoy,RU,68.05,39.51,2020-04-11,20.3,95.0,77.0,8.7
521,Aklavik,CA,68.22,-135.01,2020-04-11,17.6,67.0,75.0,3.36
522,Kangaatsiaq,GL,68.31,-53.46,2020-04-11,29.44,89.0,93.0,15.12
523,Stokmarknes,NO,68.56,14.91,2020-04-11,33.01,74.0,100.0,5.99
524,Cherskiy,RU,68.75,161.3,2020-04-11,19.85,97.0,100.0,9.42
525,Ilulissat,GL,69.22,-51.1,2020-04-11,21.2,57.0,69.0,2.24
526,Finnsnes,NO,69.23,17.98,2020-04-11,28.4,79.0,100.0,21.92
527,Deputatskiy,RU,69.3,139.9,2020-04-11,25.12,90.0,48.0,18.9
528,Andenes,NO,69.31,16.12,2020-04-11,30.2,86.0,100.0,10.29
529,Leningradskiy,RU,69.38,178.42,2020-04-11,13.46,86.0,95.0,8.32
530,Tuktoyaktuk,CA,69.45,-133.04,2020-04-11,1.4,77.0,20.0,9.17
531,Karasjok,NO,69.47,25.51,2020-04-11,28.4,68.0,88.0,19.46
532,Pevek,RU,69.7,170.31,2020-04-11,11.8,91.0,100.0,16.08
533,Ust-Kuyga,RU,70.02,135.6,2020-04-11,33.93,84.0,83.0,19.04
534,Skjervoy,NO,70.03,20.97,2020-04-11,31.46,94.0,100.0,22.08
535,Lakselv,NO,70.05,24.97,2020-04-11,27.0,73.0,96.0,21.92
536,Vardo,NO,70.37,31.11,2020-04-11,29.26,89.0,100.0,18.66
537,Clyde River,CA,70.47,-68.59,2020-04-11,3.2,91.0,90.0,16.11
538,Chokurdakh,RU,70.63,147.92,2020-04-11,23.86,95.0,56.0,13.98
539,Berlevag,NO,70.86,29.09,2020-04-11,28.35,91.0,99.0,15.59
540,Mehamn,NO,71.04,27.85,2020-04-11,27.91,91.0,100.0,11.74
541,Barrow,US,71.29,-156.79,2020-04-11,-2.2,77.0,90.0,8.05
542,Tiksi,RU,71.69,128.87,2020-04-11,29.17,93.0,95.0,35.34
543,Saskylakh,RU,71.92,114.08,2020-04-11,31.91,94.0,91.0,23.55
544,Khatanga,RU,71.97,102.5,2020-04-11,21.34,95.0,99.0,25.43
545,Upernavik,GL,72.79,-56.15,2020-04-11,10.62,82.0,0.0,9.08
546,Dikson,RU,73.51,80.55,2020-04-11,13.14,94.0,92.0,9.82
547,Qaanaaq,GL,77.48,-69.36,2020-04-11,3.83,72.0,47.0,7.38
548,Longyearbyen,SJ,78.22,15.64,2020-04-11,-7.6,76.0,20.0,3.36
